name,category,addres_full,website,phone_number,rating,review_count,longitude,latitude
Tes Psikologi PrimaBerta,Corporate office,"Tes Psikologi PrimaBerta, Kompleks Perum Griya, Jl. Jkt, Wumialo, Kec. Kota Tengah, Kota Gorontalo, Gorontalo 96128, Indonesia",https://sites.google.com/view/primaberta,+62 813-4006-3303,4.9,39,123.0450802,0.5615025
"Praktek Psikolog Sri Ayu M Kurniawati, M. Psi., Psikolog",Psychologist,"Praktek Psikolog Sri Ayu M Kurniawati, M. Psi., Psikolog, Jl. Duku, Libuo, Kota Barat, Kota Gorontalo, Gorontalo 96263, Indonesia",,+62 812-6770-4788,5,12,123.0446433,0.5555439
KLINIK MCC,Child psychologist,"KLINIK MCC, Jl. Durian No.121, South Tomulabutao, Dungingi, Kota Gorontalo, Gorontalo 96139, Indonesia",https://dm1.co.id/mcc-gorontalo-klinik-tumbuh-kembang-anak/,+62 813-4207-0505,5,5,123.0396516,0.5680312
PUSAT DIAGNOSIS DAN TERAPI PSIKOLOGI GORONTALO,Psychotherapist,"H3GV+9PV PUSAT DIAGNOSIS DAN TERAPI PSIKOLOGI GORONTALO, Permata, Kec. Tilongkabila, Kabupaten Bone Bolango, Gorontalo, Indonesia",,,,,123.094285,0.5759826
Tes STIFIn Gorontalo,Psychotherapist,"Tes STIFIn Gorontalo, Kompleks Masjid Baitussalam, Jl. H. U. Mootalu, Pantungo, Kec. Telaga Biru, Kabupaten Gorontalo, Gorontalo 96181, Indonesia",,+62 813-5613-9331,3,2,123.0377424,0.5909366