name,category,addres_full,website,phone_number,rating,review_count,longitude,latitude
,,,,,,,,
"Ruang Asa Psikocenter (Praktik Psikologi Syafira Putri Ekayani, M.Psi., Psikolog)",Psychologist,"Ruang Asa Psikocenter (Praktik Psikologi Syafira Putri Ekayani, M.Psi., Psikolog), Jl. Flamboyan No.318, RT.002/RW.001, Klasuluk, Mariat, Sorong Regency, West Papua 98457, Indonesia",https://campsite.bio/ruangasa.psikocenter,+62 822-2398-3998,5,5,131.3195135,-1.0034977
"Healthy Soul Papua Barat ""Konsultan Psikologi""",Psychologist,"Healthy Soul Papua Barat ""Konsultan Psikologi"", Jl. Izaak Telussa No.59, Fak Fak Selatan, Distrik Fakfak, Kabupaten Fakfak, Papua Bar. 98651, Indonesia",,,,,132.3066749,-2.931677
Biro Psikologi Bina Insan Papua (BIP),Corporate office,"Biro Psikologi Bina Insan Papua (BIP), Jl. Moyo Permai Blk. A No.3, Klamana, Distrik Sorong Timur, Kota Sorong, Papua Bar. 98418, Indonesia",,+62 821-9905-4205,5,2,131.3249928,-0.9105328
Biro Konsultasi Psikologi Be positive,Corporate office,"Biro Konsultasi Psikologi Be positive, KPR Putra Residence Blok Q3, Klamana, Sorong Timur, Sorong City, West Papua, Indonesia",,+62 812-3490-3930,4.1,10,131.3139943,-0.9072502
Biro Psikologi FPS,Psychologist,"Biro Psikologi FPS, Anday, Distrik Manokwari, Kabupaten Manokwari, Papua Bar. 98315, Indonesia",https://psikolog-aswendo.blogspot.com/,+62 852-5488-8666,,,134.0157902,-0.9291067
Biro Psikologi Queen Solution,Psychologist,"Biro Psikologi Queen Solution, Jl Soetoyo, Fak Fak Utara, Distrik Fakfak, Kabupaten Fakfak, Papua Bar. 98612, Indonesia",,,,,132.3048031,-2.9230881